[
  {
    "id": "1",
    "title": "Костёл Святого Михаила",
    "lat": 54.4217,
    "lng": 26.0195
  },
  {
    "id": "2",
    "title": "Ошмянская ратуша",
    "lat": 54.4230,
    "lng": 26.0172
  },
  {
    "id": "3",
    "title": "Ошмянская синагога",
    "lat": 54.4223,
    "lng": 26.0184
  },
  {
    "id": "4",
    "title": "Монастырь бонифатров",
    "lat": 54.4199,
    "lng": 26.0221
  },
  {
    "id": "5",
    "title": "Центральная площадь",
    "lat": 54.4236,
    "lng": 26.0167
  },
  {
    "id": "6",
    "title": "Православная церковь",
    "lat": 54.4246,
    "lng": 26.0146
  },
  {
    "id": "7",
    "title": "Ошмянский краеведческий музей",
    "lat": 54.4254,
    "lng": 26.0150
  },
  {
    "id": "8",
    "title": "Старый городской парк",
    "lat": 54.4261,
    "lng": 26.0135
  }
]
